,codes,name,links,coord,label,timezone,id,administrative_regions,insee,uic,lat,lon,city
6,"[{'type': 'source', 'value': '85014001'}, {'type': 'uic', 'value': '85014001'}]",Aigle,[],"{'lat': '46.31685', 'lon': '6.96367'}",Aigle (Aigle),Europe/Paris,stop_area:SNCF:85014001,"[{'insee': '', 'name': 'Aigle', 'level': 8, 'coord': {'lat': '46.31502629068736', 'lon': '6.97249596899822'}, 'label': 'Aigle (1860)', 'id': 'admin:osm:relation:1684831', 'zip_code': '1860'}]",,85014001,46.31685,6.96367,Aigle
24,"[{'type': 'source', 'value': '80153452'}, {'type': 'uic', 'value': '80153452'}]",Aix la Chapelle,[],"{'lat': '50.7675', 'lon': '6.0912'}",Aix la Chapelle (Aachen),Europe/Paris,stop_area:SNCF:80153452,"[{'insee': '', 'name': 'Aachen', 'level': 8, 'coord': {'lat': '50.776351', 'lon': '6.083862'}, 'label': 'Aachen', 'id': 'admin:osm:relation:62564', 'zip_code': ''}]",,80153452,50.7675,6.0912,Aachen
23,"[{'type': 'source', 'value': '85010355'}, {'type': 'uic', 'value': '85010355'}]",Allaman,[],"{'lat': '46.47575', 'lon': '6.3997'}",Allaman (Allaman),Europe/Paris,stop_area:SNCF:85010355,"[{'insee': '', 'name': 'Allaman', 'level': 8, 'coord': {'lat': '46.47003841867939', 'lon': '6.393881808914902'}, 'label': 'Allaman (1165)', 'id': 'admin:osm:relation:1684832', 'zip_code': '1165'}]",,85010355,46.47575,6.3997,Allaman
5,"[{'type': 'source', 'value': '84000588'}, {'type': 'uic', 'value': '84000588'}]",Amsterdam Centraal,[],"{'lat': '52.37908', 'lon': '4.900632'}",Amsterdam Centraal (Amsterdam),Europe/Paris,stop_area:SNCF:84000588,"[{'insee': '', 'name': 'Amsterdam', 'level': 8, 'coord': {'lat': '52.3727598', 'lon': '4.8936041'}, 'label': 'Amsterdam', 'id': 'admin:osm:relation:271110', 'zip_code': ''}]",,84000588,52.37908,4.900632,Amsterdam
12,"[{'type': 'source', 'value': '88210060'}, {'type': 'uic', 'value': '88210060'}]",Antwerpen Centraal,[],"{'lat': '51.216', 'lon': '4.421'}",Antwerpen Centraal (Antwerpen),Europe/Paris,stop_area:SNCF:88210060,"[{'insee': '', 'name': 'Antwerpen', 'level': 8, 'coord': {'lat': '51.2211097', 'lon': '4.3997081'}, 'label': 'Antwerpen', 'id': 'admin:osm:relation:59518', 'zip_code': ''}]",,88210060,51.216,4.421,Antwerpen
19,"[{'type': 'source', 'value': '80142893'}, {'type': 'uic', 'value': '80142893'}]",Appenweier,[],"{'lat': '48.5419', 'lon': '7.9735'}",Appenweier (Appenweier),Europe/Paris,stop_area:SNCF:80142893,"[{'insee': '', 'name': 'Appenweier', 'level': 8, 'coord': {'lat': '48.55320574452177', 'lon': '7.979820078795748'}, 'label': 'Appenweier', 'id': 'admin:osm:relation:452982', 'zip_code': ''}]",,80142893,48.5419,7.9735,Appenweier
5,"[{'type': 'source', 'value': '80021402'}, {'type': 'uic', 'value': '80021402'}]",Augsburg Hbf,[],"{'lat': '48.3654', 'lon': '10.886'}",Augsburg Hbf (Augsburg),Europe/Paris,stop_area:SNCF:80021402,"[{'insee': '', 'name': 'Augsburg', 'level': 8, 'coord': {'lat': '48.3668041', 'lon': '10.8986971'}, 'label': 'Augsburg', 'id': 'admin:osm:relation:62407', 'zip_code': ''}]",,80021402,48.3654,10.886,Augsburg
11,"[{'type': 'source', 'value': '80142778'}, {'type': 'uic', 'value': '80142778'}]",Baden-Baden,[],"{'lat': '48.7903', 'lon': '8.190899999999999'}",Baden-Baden (Baden-Baden),Europe/Paris,stop_area:SNCF:80142778,"[{'insee': '', 'name': 'Baden-Baden', 'level': 8, 'coord': {'lat': '48.7580777', 'lon': '8.241523899999999'}, 'label': 'Baden-Baden', 'id': 'admin:osm:relation:62340', 'zip_code': ''}]",,80142778,48.7903,8.1909,Baden-Baden
11,"[{'type': 'source', 'value': '87187930'}, {'type': 'uic', 'value': '87187930'}]",Bâle Saint-Jean,[],"{'lat': '47.57031', 'lon': '7.572745'}",Bâle Saint-Jean (Basel),Europe/Paris,stop_area:SNCF:87187930,"[{'insee': '', 'name': 'Basel', 'level': 8, 'coord': {'lat': '47.55775487016457', 'lon': '7.593593164705856'}, 'label': 'Basel', 'id': 'admin:osm:relation:1683619', 'zip_code': ''}]",,87187930,47.57031,7.572745,Basel
11,"[{'type': 'source', 'value': '71718010'}, {'type': 'uic', 'value': '71718010'}]",Barcelone-Sants,[],"{'lat': '41.378961', 'lon': '2.139834'}",Barcelone-Sants (Barcelona),Europe/Paris,stop_area:SNCF:71718010,"[{'insee': '', 'name': 'Barcelona', 'level': 8, 'coord': {'lat': '41.3828939', 'lon': '2.1774322'}, 'label': 'Barcelona (08001)', 'id': 'admin:osm:relation:347950', 'zip_code': '08001'}]",,71718010,41.378961,2.139834,Barcelona
13,"[{'type': 'source', 'value': '83002022'}, {'type': 'uic', 'value': '83002022'}]",BARDONECCHIA,[],"{'lat': '45.076449', 'lon': '6.709963'}",BARDONECCHIA (Bardonecchia),Europe/Paris,stop_area:SNCF:83002022,"[{'insee': '', 'name': 'Bardonecchia', 'level': 8, 'coord': {'lat': '45.078339', 'lon': '6.703205'}, 'label': 'Bardonecchia', 'id': 'admin:osm:relation:44251', 'zip_code': ''}]",,83002022,45.076449,6.709963,Bardonecchia
6,"[{'type': 'source', 'value': '82007187'}, {'type': 'uic', 'value': '82007187'}]",Bascharage secteur Sanem,[],"{'lat': '49.5585', 'lon': '5.9249'}",Bascharage secteur Sanem (Käerjeng),Europe/Paris,stop_area:SNCF:82007187,"[{'insee': '', 'name': 'Käerjeng', 'level': 8, 'coord': {'lat': '49.5712686', 'lon': '5.912845'}, 'label': 'Käerjeng', 'id': 'admin:osm:relation:407885', 'zip_code': ''}]",,82007187,49.5585,5.9249,Käerjeng
8,"[{'type': 'source', 'value': '85000109'}, {'type': 'uic', 'value': '85000109'}]",Basel SBB,[],"{'lat': '47.5474', 'lon': '7.58956'}",Basel SBB (Basel),Europe/Paris,stop_area:SNCF:85000109,"[{'insee': '', 'name': 'Basel', 'level': 8, 'coord': {'lat': '47.55775487016457', 'lon': '7.593593164705856'}, 'label': 'Basel', 'id': 'admin:osm:relation:1683619', 'zip_code': ''}]",,85000109,47.5474,7.58956,Basel
11,"[{'type': 'source', 'value': '85001222'}, {'type': 'uic', 'value': '85001222'}]",Bassecourt,[],"{'lat': '47.33668', 'lon': '7.24685'}",Bassecourt (Haute-Sorne),Europe/Paris,stop_area:SNCF:85001222,"[{'insee': '', 'name': 'Haute-Sorne', 'level': 8, 'coord': {'lat': '47.3370866', 'lon': '7.2440935'}, 'label': 'Haute-Sorne (2863)', 'id': 'admin:osm:relation:2759181', 'zip_code': '2863'}]",,85001222,47.33668,7.24685,Haute-Sorne
7,"[{'type': 'source', 'value': '80191064'}, {'type': 'uic', 'value': '80191064'}]",Berg (Pfalz),[],"{'lat': '48.9807', 'lon': '8.2128'}",Berg (Pfalz) (Berg (Pfalz)),Europe/Paris,stop_area:SNCF:80191064,"[{'insee': '', 'name': 'Berg (Pfalz)', 'level': 8, 'coord': {'lat': '48.98233936972913', 'lon': '8.204588638575972'}, 'label': 'Berg (Pfalz)', 'id': 'admin:osm:relation:1250483', 'zip_code': ''}]",,80191064,48.9807,8.2128,Berg (Pfalz)
8,"[{'type': 'source', 'value': '82006030'}, {'type': 'uic', 'value': '82006030'}]",Bettembourg,[],"{'lat': '49.516111', 'lon': '6.101111'}",Bettembourg (Bettembourg),Europe/Paris,stop_area:SNCF:82006030,"[{'insee': '', 'name': 'Bettembourg', 'level': 8, 'coord': {'lat': '49.5173351', 'lon': '6.0966536'}, 'label': 'Bettembourg', 'id': 'admin:osm:relation:407896', 'zip_code': ''}]",,82006030,49.516111,6.101111,Bettembourg
12,"[{'type': 'source', 'value': '85014027'}, {'type': 'uic', 'value': '85014027'}]",Bex,[],"{'lat': '46.25146', 'lon': '7.00067'}",Bex (Bex),Europe/Paris,stop_area:SNCF:85014027,"[{'insee': '', 'name': 'Bex', 'level': 8, 'coord': {'lat': '46.25549837885085', 'lon': '7.088862093835472'}, 'label': 'Bex (1880)', 'id': 'admin:osm:relation:1684852', 'zip_code': '1880'}]",,85014027,46.25146,7.00067,Bex
0,"[{'type': 'source', 'value': '85043000'}, {'type': 'uic', 'value': '85043000'}]",Biel/Bienne,[],"{'lat': '47.13289', 'lon': '7.24292'}",Biel/Bienne (Biel/Bienne),Europe/Paris,stop_area:SNCF:85043000,"[{'insee': '', 'name': 'Biel/Bienne', 'level': 8, 'coord': {'lat': '47.14883479207212', 'lon': '7.260423979479954'}, 'label': 'Biel/Bienne', 'id': 'admin:osm:relation:1682380', 'zip_code': ''}]",,85043000,47.13289,7.24292,Biel/Bienne
10,"[{'type': 'source', 'value': '85001289'}, {'type': 'uic', 'value': '85001289'}]",Boncourt,[],"{'lat': '47.49263', 'lon': '7.01656'}",Boncourt (Boncourt),Europe/Paris,stop_area:SNCF:85001289,"[{'insee': '', 'name': 'Boncourt', 'level': 8, 'coord': {'lat': '47.48797742607516', 'lon': '7.007569021106258'}, 'label': 'Boncourt (2926)', 'id': 'admin:osm:relation:1685574', 'zip_code': '2926'}]",,85001289,47.49263,7.01656,Boncourt
24,"[{'type': 'source', 'value': '88140010'}, {'type': 'uic', 'value': '88140010'}]",Bruxelles Midi,[],"{'lat': '50.836', 'lon': '4.336'}",Bruxelles Midi (Saint-Gilles - Sint-Gillis),Europe/Paris,stop_area:SNCF:88140010,"[{'insee': '', 'name': 'Saint-Gilles - Sint-Gillis', 'level': 8, 'coord': {'lat': '50.8249958', 'lon': '4.3454841'}, 'label': 'Saint-Gilles - Sint-Gillis (1060)', 'id': 'admin:osm:relation:58248', 'zip_code': '1060'}]",,88140010,50.836,4.336,Saint-Gilles - Sint-Gillis
8,"[{'type': 'source', 'value': '85001446'}, {'type': 'uic', 'value': '85001446'}]",Buix,[],"{'lat': '47.47933', 'lon': '7.02998'}",Buix (Basse-Allaine),Europe/Paris,stop_area:SNCF:85001446,"[{'insee': '', 'name': 'Basse-Allaine', 'level': 8, 'coord': {'lat': '47.47052428792801', 'lon': '7.042457430092767'}, 'label': 'Basse-Allaine', 'id': 'admin:osm:relation:1685570', 'zip_code': ''}]",,85001446,47.47933,7.02998,Basse-Allaine
22,"[{'type': 'source', 'value': '71041046'}, {'type': 'uic', 'value': '71041046'}]",CAMP DE TARRAGONA,[],"{'lat': '41.19213', 'lon': '1.271923'}",CAMP DE TARRAGONA (la Secuita),Europe/Paris,stop_area:SNCF:71041046,"[{'insee': '', 'name': 'la Secuita', 'level': 8, 'coord': {'lat': '41.2040962', 'lon': '1.280166'}, 'label': 'la Secuita (43154)', 'id': 'admin:osm:relation:339874', 'zip_code': '43154'}]",,71041046,41.19213,1.271923,la Secuita
15,"[{'type': 'source', 'value': '85010207'}, {'type': 'uic', 'value': '85010207'}]",Chambésy,[],"{'lat': '46.242378', 'lon': '6.147342'}",Chambésy (Pregny-Chambésy),Europe/Paris,stop_area:SNCF:85010207,"[{'insee': '', 'name': 'Pregny-Chambésy', 'level': 8, 'coord': {'lat': '46.23745938258023', 'lon': '6.150837967103715'}, 'label': 'Pregny-Chambésy', 'id': 'admin:osm:relation:1685524', 'zip_code': ''}]",,85010207,46.242378,6.147342,Pregny-Chambésy
10,"[{'type': 'source', 'value': '88720090'}, {'type': 'uic', 'value': '88720090'}]",Charleroi Sud,[],"{'lat': '50.404393', 'lon': '4.438504'}",Charleroi Sud (Charleroi),Europe/Paris,stop_area:SNCF:88720090,"[{'insee': '', 'name': 'Charleroi', 'level': 8, 'coord': {'lat': '50.4120332', 'lon': '4.4436244'}, 'label': 'Charleroi', 'id': 'admin:osm:relation:2113725', 'zip_code': ''}]",,88720090,50.404393,4.438504,Charleroi
3,"[{'type': 'source', 'value': '85162750'}, {'type': 'uic', 'value': '85162750'}]",Chêne-Bourg,[],"{'lat': '46.196607', 'lon': '6.197253'}",Chêne-Bourg (Chêne-Bourg),Europe/Paris,stop_area:SNCF:85162750,"[{'insee': '', 'name': 'Chêne-Bourg', 'level': 8, 'coord': {'lat': '46.19737801091534', 'lon': '6.197016014304897'}, 'label': 'Chêne-Bourg', 'id': 'admin:osm:relation:1685466', 'zip_code': ''}]",,85162750,46.196607,6.197253,Chêne-Bourg
15,"[{'type': 'source', 'value': '80154583'}, {'type': 'uic', 'value': '80154583'}]",Cologne,[],"{'lat': '50.9428', 'lon': '6.9591'}",Cologne (Köln),Europe/Paris,stop_area:SNCF:80154583,"[{'insee': '', 'name': 'Köln', 'level': 8, 'coord': {'lat': '50.938361', 'lon': '6.959974'}, 'label': 'Köln', 'id': 'admin:osm:relation:62578', 'zip_code': ''}]",,80154583,50.9428,6.9591,Köln
2,"[{'type': 'source', 'value': '85010231'}, {'type': 'uic', 'value': '85010231'}]",Coppet,[],"{'lat': '46.317378', 'lon': '6.187829'}",Coppet (Coppet),Europe/Paris,stop_area:SNCF:85010231,"[{'insee': '', 'name': 'Coppet', 'level': 8, 'coord': {'lat': '46.32133651924627', 'lon': '6.189059089303142'}, 'label': 'Coppet', 'id': 'admin:osm:relation:1684917', 'zip_code': ''}]",,85010231,46.317378,6.187829,Coppet
3,"[{'type': 'source', 'value': '85001412'}, {'type': 'uic', 'value': '85001412'}]",Courchavon,[],"{'lat': '47.43977', 'lon': '7.05765'}",Courchavon (Courchavon),Europe/Paris,stop_area:SNCF:85001412,"[{'insee': '', 'name': 'Courchavon', 'level': 8, 'coord': {'lat': '47.43822506118142', 'lon': '7.046322504437906'}, 'label': 'Courchavon', 'id': 'admin:osm:relation:1685588', 'zip_code': ''}]",,85001412,47.43977,7.05765,Courchavon
5,"[{'type': 'source', 'value': '85001214'}, {'type': 'uic', 'value': '85001214'}]",Courfaivre,[],"{'lat': '47.33508', 'lon': '7.29117'}",Courfaivre (Haute-Sorne),Europe/Paris,stop_area:SNCF:85001214,"[{'insee': '', 'name': 'Haute-Sorne', 'level': 8, 'coord': {'lat': '47.3370866', 'lon': '7.2440935'}, 'label': 'Haute-Sorne (2863)', 'id': 'admin:osm:relation:2759181', 'zip_code': '2863'}]",,85001214,47.33508,7.29117,Haute-Sorne
6,"[{'type': 'source', 'value': '85001255'}, {'type': 'uic', 'value': '85001255'}]",Courgenay,[],"{'lat': '47.40522', 'lon': '7.12421'}",Courgenay (Courgenay),Europe/Paris,stop_area:SNCF:85001255,"[{'insee': '', 'name': 'Courgenay', 'level': 8, 'coord': {'lat': '47.40454339999999', 'lon': '7.1242961'}, 'label': 'Courgenay', 'id': 'admin:osm:relation:1685590', 'zip_code': ''}]",,85001255,47.40522,7.12421,Courgenay
12,"[{'type': 'source', 'value': '85001271'}, {'type': 'uic', 'value': '85001271'}]",Courtemaîche,[],"{'lat': '47.45587', 'lon': '7.05539'}",Courtemaîche (Basse-Allaine),Europe/Paris,stop_area:SNCF:85001271,"[{'insee': '', 'name': 'Basse-Allaine', 'level': 8, 'coord': {'lat': '47.47052428792801', 'lon': '7.042457430092767'}, 'label': 'Basse-Allaine', 'id': 'admin:osm:relation:1685570', 'zip_code': ''}]",,85001271,47.45587,7.05539,Basse-Allaine
13,"[{'type': 'source', 'value': '85001206'}, {'type': 'uic', 'value': '85001206'}]",Courtételle,[],"{'lat': '47.34282', 'lon': '7.31794'}",Courtételle (Courtételle),Europe/Paris,stop_area:SNCF:85001206,"[{'insee': '', 'name': 'Courtételle', 'level': 8, 'coord': {'lat': '47.33094706326774', 'lon': '7.317637693177696'}, 'label': 'Courtételle (2852)', 'id': 'admin:osm:relation:1685594', 'zip_code': '2852'}]",,85001206,47.34282,7.31794,Courtételle
15,"[{'type': 'source', 'value': '88960080'}, {'type': 'uic', 'value': '88960080'}]",Courtrai,[],"{'lat': '50.824', 'lon': '3.26'}",Courtrai (Kortrijk),Europe/Paris,stop_area:SNCF:88960080,"[{'insee': '', 'name': 'Kortrijk', 'level': 8, 'coord': {'lat': '50.8276429', 'lon': '3.2659884'}, 'label': 'Kortrijk', 'id': 'admin:osm:relation:961284', 'zip_code': ''}]",,88960080,50.824,3.26,Kortrijk
14,"[{'type': 'source', 'value': '85010124'}, {'type': 'uic', 'value': '85010124'}]",Creux-de-Genthod,[],"{'lat': '46.263758', 'lon': '6.161319'}",Creux-de-Genthod (Genthod),Europe/Paris,stop_area:SNCF:85010124,"[{'insee': '', 'name': 'Genthod', 'level': 8, 'coord': {'lat': '46.26359319041534', 'lon': '6.161741059172216'}, 'label': 'Genthod (1294)', 'id': 'admin:osm:relation:1685487', 'zip_code': '1294'}]",,85010124,46.263758,6.161319,Genthod
9,"[{'type': 'source', 'value': '85001099'}, {'type': 'uic', 'value': '85001099'}]",Delemont,[],"{'lat': '47.362', 'lon': '7.35007'}",Delemont (Delémont),Europe/Paris,stop_area:SNCF:85001099,"[{'insee': '', 'name': 'Delémont', 'level': 8, 'coord': {'lat': '47.37510007783584', 'lon': '7.332897004444538'}, 'label': 'Delémont (2800)', 'id': 'admin:osm:relation:1685596', 'zip_code': '2800'}]",,85001099,47.362,7.35007,Delémont
16,"[{'type': 'source', 'value': '82007146'}, {'type': 'uic', 'value': '82007146'}]",Dippach secteur Reckange,[],"{'lat': '49.57252', 'lon': '5.99512'}",Dippach secteur Reckange (Dippach),Europe/Paris,stop_area:SNCF:82007146,"[{'insee': '', 'name': 'Dippach', 'level': 8, 'coord': {'lat': '49.587507', 'lon': '5.9814794'}, 'label': 'Dippach', 'id': 'admin:osm:relation:407895', 'zip_code': ''}]",,82007146,49.57252,5.99512,Dippach
2,"[{'type': 'source', 'value': '80100537'}, {'type': 'uic', 'value': '80100537'}]",Dortmund Hbf,[],"{'lat': '51.518', 'lon': '7.4592'}",Dortmund Hbf (Dortmund),Europe/Paris,stop_area:SNCF:80100537,"[{'insee': '', 'name': 'Dortmund', 'level': 8, 'coord': {'lat': '51.51422729999999', 'lon': '7.4652789'}, 'label': 'Dortmund', 'id': 'admin:osm:relation:1829065', 'zip_code': ''}]",,80100537,51.518,7.4592,Dortmund
2,"[{'type': 'source', 'value': '80156539'}, {'type': 'uic', 'value': '80156539'}]",Duesseldorf Flughafen,[],"{'lat': '51.2916', 'lon': '6.7869'}",Duesseldorf Flughafen (Düsseldorf),Europe/Paris,stop_area:SNCF:80156539,"[{'insee': '', 'name': 'Düsseldorf', 'level': 8, 'coord': {'lat': '51.2254018', 'lon': '6.776313699999999'}, 'label': 'Düsseldorf', 'id': 'admin:osm:relation:62539', 'zip_code': ''}]",,80156539,51.2916,6.7869,Düsseldorf
3,"[{'type': 'source', 'value': '80080945'}, {'type': 'uic', 'value': '80080945'}]",Duesseldorf Hbf,[],"{'lat': '51.2194', 'lon': '6.7946'}",Duesseldorf Hbf (Düsseldorf),Europe/Paris,stop_area:SNCF:80080945,"[{'insee': '', 'name': 'Düsseldorf', 'level': 8, 'coord': {'lat': '51.2254018', 'lon': '6.776313699999999'}, 'label': 'Düsseldorf', 'id': 'admin:osm:relation:62539', 'zip_code': ''}]",,80080945,51.2194,6.7946,Düsseldorf
5,"[{'type': 'source', 'value': '80103168'}, {'type': 'uic', 'value': '80103168'}]",Duisburg Hbf,[],"{'lat': '51.4297', 'lon': '6.7755'}",Duisburg Hbf (Duisburg),Europe/Paris,stop_area:SNCF:80103168,"[{'insee': '', 'name': 'Duisburg', 'level': 8, 'coord': {'lat': '51.434999', 'lon': '6.759562'}, 'label': 'Duisburg', 'id': 'admin:osm:relation:62456', 'zip_code': ''}]",,80103168,51.4297,6.7755,Duisburg
3,"[{'type': 'source', 'value': '80194217'}, {'type': 'uic', 'value': '80194217'}]",Edenkoben,[],"{'lat': '49.28185', 'lon': '8.140549999999999'}",Edenkoben (Edenkoben),Europe/Paris,stop_area:SNCF:80194217,"[{'insee': '', 'name': 'Edenkoben', 'level': 8, 'coord': {'lat': '49.29183216590821', 'lon': '8.061976679641724'}, 'label': 'Edenkoben', 'id': 'admin:osm:relation:1252494', 'zip_code': ''}]",,80194217,49.28185,8.14055,Edenkoben
17,"[{'type': 'source', 'value': '80143313'}, {'type': 'uic', 'value': '80143313'}]",Emmendingen,[],"{'lat': '48.1193', 'lon': '7.8479'}",Emmendingen (Emmendingen),Europe/Paris,stop_area:SNCF:80143313,"[{'insee': '', 'name': 'Emmendingen', 'level': 8, 'coord': {'lat': '48.1206565', 'lon': '7.850993'}, 'label': 'Emmendingen', 'id': 'admin:osm:relation:1124268', 'zip_code': ''}]",,80143313,48.1193,7.8479,Emmendingen
10,"[{'type': 'source', 'value': '80101840'}, {'type': 'uic', 'value': '80101840'}]",Essen Hbf,[],"{'lat': '51.4516', 'lon': '7.0138'}",Essen Hbf (Essen),Europe/Paris,stop_area:SNCF:80101840,"[{'insee': '', 'name': 'Essen', 'level': 8, 'coord': {'lat': '51.4582235', 'lon': '7.0158171'}, 'label': 'Essen', 'id': 'admin:osm:relation:62713', 'zip_code': ''}]",,80101840,51.4516,7.0138,Essen
15,"[{'type': 'source', 'value': '71043075'}, {'type': 'uic', 'value': '71043075'}]",FIGUERES-VILAFANT,[],"{'lat': '42.264581', 'lon': '2.943028'}",FIGUERES-VILAFANT (Vilafant),Europe/Paris,stop_area:SNCF:71043075,"[{'insee': '', 'name': 'Vilafant', 'level': 8, 'coord': {'lat': '42.2515266', 'lon': '2.9418008'}, 'label': 'Vilafant (17740)', 'id': 'admin:osm:relation:342990', 'zip_code': '17740'}]",,71043075,42.264581,2.943028,Vilafant
24,"[{'type': 'source', 'value': '80110684'}, {'type': 'uic', 'value': '80110684'}]",Francfort sur le Main,[],"{'lat': '50.1073', 'lon': '8.6624'}",Francfort sur le Main (Frankfurt am Main),Europe/Paris,stop_area:SNCF:80110684,"[{'insee': '', 'name': 'Frankfurt am Main', 'level': 8, 'coord': {'lat': '50.1106444', 'lon': '8.682091699999999'}, 'label': 'Frankfurt am Main', 'id': 'admin:osm:relation:62400', 'zip_code': ''}]",,80110684,50.1073,8.6624,Frankfurt am Main
9,"[{'type': 'source', 'value': '80143503'}, {'type': 'uic', 'value': '80143503'}]",Freiburg (Breisgau) Hbf,[],"{'lat': '47.9979', 'lon': '7.8416'}",Freiburg (Breisgau) Hbf (Freiburg im Breisgau),Europe/Paris,stop_area:SNCF:80143503,"[{'insee': '', 'name': 'Freiburg im Breisgau', 'level': 8, 'coord': {'lat': '47.9960901', 'lon': '7.8494005'}, 'label': 'Freiburg im Breisgau', 'id': 'admin:osm:relation:62768', 'zip_code': ''}]",,80143503,47.9979,7.8416,Freiburg im Breisgau
12,"[{'type': 'source', 'value': '88850685'}, {'type': 'uic', 'value': '88850685'}]",FROYENNES,[],"{'lat': '50.629', 'lon': '3.355'}",FROYENNES (Tournai),Europe/Paris,stop_area:SNCF:88850685,"[{'insee': '', 'name': 'Tournai', 'level': 8, 'coord': {'lat': '50.6056458', 'lon': '3.3878179'}, 'label': 'Tournai', 'id': 'admin:osm:relation:2162970', 'zip_code': ''}]",,88850685,50.629,3.355,Tournai
8,"[{'type': 'source', 'value': '85010082'}, {'type': 'uic', 'value': '85010082'}]",Genève,[],"{'lat': '46.21022', 'lon': '6.14244'}",Genève (Genève),Europe/Paris,stop_area:SNCF:85010082,"[{'insee': '', 'name': 'Genève', 'level': 8, 'coord': {'lat': '46.20175589999999', 'lon': '6.1466014'}, 'label': 'Genève', 'id': 'admin:osm:relation:1685488', 'zip_code': ''}]",,85010082,46.21022,6.14244,Genève
9,"[{'type': 'source', 'value': '85162727'}, {'type': 'uic', 'value': '85162727'}]",Genève-Champel,[],"{'lat': '46.192191', 'lon': '6.153505'}",Genève-Champel (Genève),Europe/Paris,stop_area:SNCF:85162727,"[{'insee': '', 'name': 'Genève', 'level': 8, 'coord': {'lat': '46.20175589999999', 'lon': '6.1466014'}, 'label': 'Genève', 'id': 'admin:osm:relation:1685488', 'zip_code': ''}]",,85162727,46.192191,6.153505,Genève
10,"[{'type': 'source', 'value': '85162735'}, {'type': 'uic', 'value': '85162735'}]",Genève-Eaux-Vives,[],"{'lat': '46.201444', 'lon': '6.16658'}",Genève-Eaux-Vives (Genève),Europe/Paris,stop_area:SNCF:85162735,"[{'insee': '', 'name': 'Genève', 'level': 8, 'coord': {'lat': '46.20175589999999', 'lon': '6.1466014'}, 'label': 'Genève', 'id': 'admin:osm:relation:1685488', 'zip_code': ''}]",,85162735,46.201444,6.16658,Genève
11,"[{'type': 'source', 'value': '85162834'}, {'type': 'uic', 'value': '85162834'}]",Genève-Sécheron,[],"{'lat': '46.222438', 'lon': '6.144557'}",Genève-Sécheron (Genève),Europe/Paris,stop_area:SNCF:85162834,"[{'insee': '', 'name': 'Genève', 'level': 8, 'coord': {'lat': '46.20175589999999', 'lon': '6.1466014'}, 'label': 'Genève', 'id': 'admin:osm:relation:1685488', 'zip_code': ''}]",,85162834,46.222438,6.144557,Genève
16,"[{'type': 'source', 'value': '85010215'}, {'type': 'uic', 'value': '85010215'}]",Genthod-Bellevue,[],"{'lat': '46.256728', 'lon': '6.153962'}",Genthod-Bellevue (Genthod),Europe/Paris,stop_area:SNCF:85010215,"[{'insee': '', 'name': 'Genthod', 'level': 8, 'coord': {'lat': '46.26359319041534', 'lon': '6.161741059172216'}, 'label': 'Genthod (1294)', 'id': 'admin:osm:relation:1685487', 'zip_code': '1294'}]",,85010215,46.256728,6.153962,Genthod
15,"[{'type': 'source', 'value': '71793000'}, {'type': 'uic', 'value': '71793000'}]",GIRONA,[],"{'lat': '41.979371', 'lon': '2.816957'}",GIRONA (Girona),Europe/Paris,stop_area:SNCF:71793000,"[{'insee': '', 'name': 'Girona', 'level': 8, 'coord': {'lat': '41.97930059999999', 'lon': '2.8199439'}, 'label': 'Girona', 'id': 'admin:osm:relation:343535', 'zip_code': ''}]",,71793000,41.979371,2.816957,Girona
22,"[{'type': 'source', 'value': '85010314'}, {'type': 'uic', 'value': '85010314'}]",Gland,[],"{'lat': '46.419995', 'lon': '6.269138'}",Gland (Gland),Europe/Paris,stop_area:SNCF:85010314,"[{'insee': '', 'name': 'Gland', 'level': 8, 'coord': {'lat': '46.41973595683019', 'lon': '6.27304145639375'}, 'label': 'Gland (1196)', 'id': 'admin:osm:relation:1684988', 'zip_code': '1196'}]",,85010314,46.419995,6.269138,Gland
23,"[{'type': 'source', 'value': '85001230'}, {'type': 'uic', 'value': '85001230'}]",Glovelier,[],"{'lat': '47.3352', 'lon': '7.20931'}",Glovelier (Haute-Sorne),Europe/Paris,stop_area:SNCF:85001230,"[{'insee': '', 'name': 'Haute-Sorne', 'level': 8, 'coord': {'lat': '47.3370866', 'lon': '7.2440935'}, 'label': 'Haute-Sorne (2863)', 'id': 'admin:osm:relation:2759181', 'zip_code': '2863'}]",,85001230,47.3352,7.20931,Haute-Sorne
13,"[{'type': 'source', 'value': '85001594'}, {'type': 'uic', 'value': '85001594'}]",Grenchen Nord,[],"{'lat': '47.1918', 'lon': '7.38947'}",Grenchen Nord (Grenchen),Europe/Paris,stop_area:SNCF:85001594,"[{'insee': '', 'name': 'Grenchen', 'level': 8, 'coord': {'lat': '47.19722103444467', 'lon': '7.387597093043016'}, 'label': 'Grenchen (2540)', 'id': 'admin:osm:relation:1683510', 'zip_code': '2540'}]",,85001594,47.1918,7.38947,Grenchen
15,"[{'type': 'source', 'value': '80191049'}, {'type': 'uic', 'value': '80191049'}]",Hagenbach,[],"{'lat': '49.016', 'lon': '8.253'}",Hagenbach (Hagenbach),Europe/Paris,stop_area:SNCF:80191049,"[{'insee': '', 'name': 'Hagenbach', 'level': 8, 'coord': {'lat': '49.0134033320828', 'lon': '8.252709688499802'}, 'label': 'Hagenbach', 'id': 'admin:osm:relation:1250485', 'zip_code': ''}]",,80191049,49.016,8.253,Hagenbach
16,"[{'type': 'source', 'value': '82002501'}, {'type': 'uic', 'value': '82002501'}]",Howald,[],"{'lat': '49.58032', 'lon': '6.13232'}",Howald (Hesperange),Europe/Paris,stop_area:SNCF:82002501,"[{'insee': '', 'name': 'Hesperange', 'level': 8, 'coord': {'lat': '49.5729552', 'lon': '6.1615727'}, 'label': 'Hesperange', 'id': 'admin:osm:relation:410953', 'zip_code': ''}]",,82002501,49.58032,6.13232,Hesperange
18,"[{'type': 'source', 'value': '80194308'}, {'type': 'uic', 'value': '80194308'}]",Insheim,[],"{'lat': '49.15724', 'lon': '8.152139999999999'}",Insheim (Insheim),Europe/Paris,stop_area:SNCF:80194308,"[{'insee': '', 'name': 'Insheim', 'level': 8, 'coord': {'lat': '49.1571411', 'lon': '8.148050099999999'}, 'label': 'Insheim', 'id': 'admin:osm:relation:1252794', 'zip_code': ''}]",,80194308,49.15724,8.15214,Insheim
9,"[{'type': 'source', 'value': '80196980'}, {'type': 'uic', 'value': '80196980'}]",Kaiserslautern Hbf,[],"{'lat': '49.4359', 'lon': '7.7688'}",Kaiserslautern Hbf (Kaiserslautern),Europe/Paris,stop_area:SNCF:80196980,"[{'insee': '', 'name': 'Kaiserslautern', 'level': 8, 'coord': {'lat': '49.44321739999999', 'lon': '7.7689951'}, 'label': 'Kaiserslautern', 'id': 'admin:osm:relation:62652', 'zip_code': ''}]",,80196980,49.4359,7.7688,Kaiserslautern
12,"[{'type': 'source', 'value': '80142281'}, {'type': 'uic', 'value': '80142281'}]",Karlsruhe Hbf,[],"{'lat': '48.9935', 'lon': '8.401899999999999'}",Karlsruhe Hbf (Karlsruhe),Europe/Paris,stop_area:SNCF:80142281,"[{'insee': '', 'name': 'Karlsruhe', 'level': 8, 'coord': {'lat': '49.0068705', 'lon': '8.4034195'}, 'label': 'Karlsruhe', 'id': 'admin:osm:relation:62518', 'zip_code': ''}]",,80142281,48.9935,8.4019,Karlsruhe
15,"[{'type': 'source', 'value': '80142927'}, {'type': 'uic', 'value': '80142927'}]",Kehl,[],"{'lat': '48.5767', 'lon': '7.8063'}",Kehl (Kehl),Europe/Paris,stop_area:SNCF:80142927,"[{'insee': '', 'name': 'Kehl', 'level': 8, 'coord': {'lat': '48.57207220169926', 'lon': '7.850108430037049'}, 'label': 'Kehl', 'id': 'admin:osm:relation:452979', 'zip_code': ''}]",,80142927,48.5767,7.8063,Kehl
3,"[{'type': 'source', 'value': '80251850'}, {'type': 'uic', 'value': '80251850'}]",Konz Mitte,[],"{'lat': '49.700046', 'lon': '6.57329'}",Konz Mitte (Konz),Europe/Paris,stop_area:SNCF:80251850,"[{'insee': '', 'name': 'Konz', 'level': 8, 'coord': {'lat': '49.6984949', 'lon': '6.573645399999999'}, 'label': 'Konz', 'id': 'admin:osm:relation:1255968', 'zip_code': ''}]",,80251850,49.700046,6.57329,Konz
4,"[{'type': 'source', 'value': '80142919'}, {'type': 'uic', 'value': '80142919'}]",Kork,[],"{'lat': '48.5702', 'lon': '7.8744'}",Kork (Kehl),Europe/Paris,stop_area:SNCF:80142919,"[{'insee': '', 'name': 'Kehl', 'level': 8, 'coord': {'lat': '48.57207220169926', 'lon': '7.850108430037049'}, 'label': 'Kehl', 'id': 'admin:osm:relation:452979', 'zip_code': ''}]",,80142919,48.5702,7.8744,Kehl
21,"[{'type': 'source', 'value': '85043141'}, {'type': 'uic', 'value': '85043141'}]",La Chaux-de-Fonds,[],"{'lat': '47.09865', 'lon': '6.82603'}",La Chaux-de-Fonds (La Chaux-de-Fonds),Europe/Paris,stop_area:SNCF:85043141,"[{'insee': '', 'name': 'La Chaux-de-Fonds', 'level': 8, 'coord': {'lat': '47.11016116855272', 'lon': '6.833421669587788'}, 'label': 'La Chaux-de-Fonds', 'id': 'admin:osm:relation:1685495', 'zip_code': ''}]",,85043141,47.09865,6.82603,La Chaux-de-Fonds
0,"[{'type': 'source', 'value': '80143198'}, {'type': 'uic', 'value': '80143198'}]",Lahr (Schwarzw),[],"{'lat': '48.3406', 'lon': '7.8353'}",Lahr (Schwarzw) (Lahr/Schwarzwald),Europe/Paris,stop_area:SNCF:80143198,"[{'insee': '', 'name': 'Lahr/Schwarzwald', 'level': 8, 'coord': {'lat': '48.33551083760668', 'lon': '7.874234538588353'}, 'label': 'Lahr/Schwarzwald', 'id': 'admin:osm:relation:453002', 'zip_code': ''}]",,80143198,48.3406,7.8353,Lahr/Schwarzwald
23,"[{'type': 'source', 'value': '85171421'}, {'type': 'uic', 'value': '85171421'}]",Lancy-Bachet,[],"{'lat': '46.174333', 'lon': '6.129372'}",Lancy-Bachet (Lancy),Europe/Paris,stop_area:SNCF:85171421,"[{'insee': '', 'name': 'Lancy', 'level': 8, 'coord': {'lat': '46.1839156', 'lon': '6.1224047'}, 'label': 'Lancy', 'id': 'admin:osm:relation:1685502', 'zip_code': ''}]",,85171421,46.174333,6.129372,Lancy
24,"[{'type': 'source', 'value': '85161554'}, {'type': 'uic', 'value': '85161554'}]",Lancy-Pont-Rouge,[],"{'lat': '46.188897', 'lon': '6.125333'}",Lancy-Pont-Rouge (Lancy),Europe/Paris,stop_area:SNCF:85161554,"[{'insee': '', 'name': 'Lancy', 'level': 8, 'coord': {'lat': '46.1839156', 'lon': '6.1224047'}, 'label': 'Lancy', 'id': 'admin:osm:relation:1685502', 'zip_code': ''}]",,85161554,46.188897,6.125333,Lancy
1,"[{'type': 'source', 'value': '80194266'}, {'type': 'uic', 'value': '80194266'}]",Landau (Pfalz) Hbf,[],"{'lat': '49.1982', 'lon': '8.125999999999999'}",Landau (Pfalz) Hbf (Landau in der Pfalz),Europe/Paris,stop_area:SNCF:80194266,"[{'insee': '', 'name': 'Landau in der Pfalz', 'level': 8, 'coord': {'lat': '49.1982825', 'lon': '8.1123441'}, 'label': 'Landau in der Pfalz', 'id': 'admin:osm:relation:62391', 'zip_code': ''}]",,80194266,49.1982,8.126,Landau in der Pfalz
24,"[{'type': 'source', 'value': '85011205'}, {'type': 'uic', 'value': '85011205'}]",Lausanne,[],"{'lat': '46.51679', 'lon': '6.62909'}",Lausanne (Lausanne),Europe/Paris,stop_area:SNCF:85011205,"[{'insee': '', 'name': 'Lausanne', 'level': 8, 'coord': {'lat': '46.5218269', 'lon': '6.6327025'}, 'label': 'Lausanne', 'id': 'admin:osm:relation:1685018', 'zip_code': ''}]",,85011205,46.51679,6.62909,Lausanne
18,"[{'type': 'source', 'value': '85043158'}, {'type': 'uic', 'value': '85043158'}]",Le Crêt-du-Locle,[],"{'lat': '47.0776', 'lon': '6.78519'}",Le Crêt-du-Locle (La Chaux-de-Fonds),Europe/Paris,stop_area:SNCF:85043158,"[{'insee': '', 'name': 'La Chaux-de-Fonds', 'level': 8, 'coord': {'lat': '47.11016116855272', 'lon': '6.833421669587788'}, 'label': 'La Chaux-de-Fonds', 'id': 'admin:osm:relation:1685495', 'zip_code': ''}]",,85043158,47.0776,6.78519,La Chaux-de-Fonds
13,"[{'type': 'source', 'value': '85043166'}, {'type': 'uic', 'value': '85043166'}]",Le Locle,[],"{'lat': '47.05786', 'lon': '6.74616'}",Le Locle (Le Locle),Europe/Paris,stop_area:SNCF:85043166,"[{'insee': '', 'name': 'Le Locle', 'level': 8, 'coord': {'lat': '47.06036539222593', 'lon': '6.740392386445066'}, 'label': 'Le Locle (2400)', 'id': 'admin:osm:relation:1685506', 'zip_code': '2400'}]",,85043166,47.05786,6.74616,Le Locle
14,"[{'type': 'source', 'value': '87598219'}, {'type': 'uic', 'value': '87598219'}]",Le Locle Col des Roches,[],"{'lat': '47.049887', 'lon': '6.7258'}",Le Locle Col des Roches (Le Locle),Europe/Paris,stop_area:SNCF:87598219,"[{'insee': '', 'name': 'Le Locle', 'level': 8, 'coord': {'lat': '47.06036539222593', 'lon': '6.740392386445066'}, 'label': 'Le Locle (2400)', 'id': 'admin:osm:relation:1685506', 'zip_code': '2400'}]",,87598219,47.049887,6.7258,Le Locle
9,"[{'type': 'source', 'value': '80142901'}, {'type': 'uic', 'value': '80142901'}]",Legelshurst,[],"{'lat': '48.5585', 'lon': '7.9138'}",Legelshurst (Willstätt),Europe/Paris,stop_area:SNCF:80142901,"[{'insee': '', 'name': 'Willstätt', 'level': 8, 'coord': {'lat': '48.55079514899536', 'lon': '7.894595417895565'}, 'label': 'Willstätt', 'id': 'admin:osm:relation:452980', 'zip_code': ''}]",,80142901,48.5585,7.9138,Willstätt
15,"[{'type': 'source', 'value': '85010116'}, {'type': 'uic', 'value': '85010116'}]",Les Tuileries,[],"{'lat': '46.249945', 'lon': '6.147342'}",Les Tuileries (Bellevue),Europe/Paris,stop_area:SNCF:85010116,"[{'insee': '', 'name': 'Bellevue', 'level': 8, 'coord': {'lat': '46.25466376486708', 'lon': '6.14528788330471'}, 'label': 'Bellevue (1293)', 'id': 'admin:osm:relation:1685450', 'zip_code': '1293'}]",,85010116,46.249945,6.147342,Bellevue
15,"[{'type': 'source', 'value': '88410040'}, {'type': 'uic', 'value': '88410040'}]",Liege-Guil,[],"{'lat': '50.622', 'lon': '5.568'}",Liege-Guil (Liège),Europe/Paris,stop_area:SNCF:88410040,"[{'insee': '', 'name': 'Liège', 'level': 8, 'coord': {'lat': '50.6451381', 'lon': '5.5734203'}, 'label': 'Liège (4000)', 'id': 'admin:osm:relation:1681788', 'zip_code': '4000'}]",,88410040,50.622,5.568,Liège
16,"[{'type': 'source', 'value': '70154005'}, {'type': 'uic', 'value': '70154005'}]",Londres Saint Pancras,[],"{'lat': '51.5338', 'lon': '-0.12807'}",Londres Saint Pancras (Camden Town),Europe/Paris,stop_area:SNCF:70154005,"[{'insee': '', 'name': 'Camden Town', 'level': 8, 'coord': {'lat': '51.5423045', 'lon': '-0.1395604'}, 'label': 'Camden Town', 'id': 'admin:osm:node:399607277', 'zip_code': ''}]",,70154005,51.5338,-0.12807,Camden Town
13,"[{'type': 'source', 'value': '82001000'}, {'type': 'uic', 'value': '82001000'}]",Luxembourg,[],"{'lat': '49.599722', 'lon': '6.134722'}",Luxembourg (Luxembourg),Europe/Paris,stop_area:SNCF:82001000,"[{'insee': '', 'name': 'Luxembourg', 'level': 8, 'coord': {'lat': '49.6112768', 'lon': '6.129798999999999'}, 'label': 'Luxembourg', 'id': 'admin:osm:relation:407489', 'zip_code': ''}]",,82001000,49.599722,6.134722,Luxembourg
15,"[{'type': 'source', 'value': '82007104'}, {'type': 'uic', 'value': '82007104'}]",Luxembourg secteur Hollerich,[],"{'lat': '49.59586', 'lon': '6.11878'}",Luxembourg secteur Hollerich (Luxembourg),Europe/Paris,stop_area:SNCF:82007104,"[{'insee': '', 'name': 'Luxembourg', 'level': 8, 'coord': {'lat': '49.6112768', 'lon': '6.129798999999999'}, 'label': 'Luxembourg', 'id': 'admin:osm:relation:407489', 'zip_code': ''}]",,82007104,49.59586,6.11878,Luxembourg
21,"[{'type': 'source', 'value': '71600000'}, {'type': 'uic', 'value': '71600000'}]",Madrid Porte d'Atocha,[],"{'lat': '40.406259', 'lon': '-3.690583'}",Madrid Porte d'Atocha (Madrid),Europe/Paris,stop_area:SNCF:71600000,"[{'insee': '', 'name': 'Madrid', 'level': 8, 'coord': {'lat': '40.4167047', 'lon': '-3.7035825'}, 'label': 'Madrid', 'id': 'admin:osm:relation:5326784', 'zip_code': ''}]",,71600000,40.406259,-3.690583,Madrid
5,"[{'type': 'source', 'value': '80140087'}, {'type': 'uic', 'value': '80140087'}]",Mannheim Hbf,[],"{'lat': '49.4794', 'lon': '8.4696'}",Mannheim Hbf (Mannheim),Europe/Paris,stop_area:SNCF:80140087,"[{'insee': '', 'name': 'Mannheim', 'level': 8, 'coord': {'lat': '49.4892913', 'lon': '8.467309799999999'}, 'label': 'Mannheim', 'id': 'admin:osm:relation:62691', 'zip_code': ''}]",,80140087,49.4794,8.4696,Mannheim
17,"[{'type': 'source', 'value': '85015008'}, {'type': 'uic', 'value': '85015008'}]",Martigny,[],"{'lat': '46.10583', 'lon': '7.07911'}",Martigny (Martigny),Europe/Paris,stop_area:SNCF:85015008,"[{'insee': '', 'name': 'Martigny', 'level': 8, 'coord': {'lat': '46.103115', 'lon': '7.0727354'}, 'label': 'Martigny', 'id': 'admin:osm:relation:1685332', 'zip_code': ''}]",,85015008,46.10583,7.07911,Martigny
0,"[{'type': 'source', 'value': '80646133'}, {'type': 'uic', 'value': '80646133'}]",Maximiliansau Im Ruesten,[],"{'lat': '49.035', 'lon': '8.2796'}",Maximiliansau Im Ruesten (Wörth am Rhein),Europe/Paris,stop_area:SNCF:80646133,"[{'insee': '', 'name': 'Wörth am Rhein', 'level': 8, 'coord': {'lat': '49.03395129883976', 'lon': '8.18870269755608'}, 'label': 'Wörth am Rhein', 'id': 'admin:osm:relation:904764', 'zip_code': ''}]",,80646133,49.035,8.2796,Wörth am Rhein
21,"[{'type': 'source', 'value': '85010066'}, {'type': 'uic', 'value': '85010066'}]",Meyrin,[],"{'lat': '46.22235', 'lon': '6.0769'}",Meyrin (Meyrin),Europe/Paris,stop_area:SNCF:85010066,"[{'insee': '', 'name': 'Meyrin', 'level': 8, 'coord': {'lat': '46.23222879481358', 'lon': '6.079098779483221'}, 'label': 'Meyrin', 'id': 'admin:osm:relation:1685516', 'zip_code': ''}]",,85010066,46.22235,6.0769,Meyrin
2,"[{'type': 'source', 'value': '85010140'}, {'type': 'uic', 'value': '85010140'}]",Mies,[],"{'lat': '46.299879', 'lon': '6.169566'}",Mies (Mies),Europe/Paris,stop_area:SNCF:85010140,"[{'insee': '', 'name': 'Mies', 'level': 8, 'coord': {'lat': '46.3060321', 'lon': '6.1723029'}, 'label': 'Mies (1295)', 'id': 'admin:osm:relation:1685048', 'zip_code': '1295'}]",,85010140,46.299879,6.169566,Mies
4,"[{'type': 'source', 'value': '83016451'}, {'type': 'uic', 'value': '83016451'}]",MILANO PORTA GARIBALDI,[],"{'lat': '45.484916', 'lon': '9.187694'}",MILANO PORTA GARIBALDI (Milano),Europe/Paris,stop_area:SNCF:83016451,"[{'insee': '', 'name': 'Milano', 'level': 8, 'coord': {'lat': '45.4641943', 'lon': '9.1896346'}, 'label': 'Milano', 'id': 'admin:osm:relation:44915', 'zip_code': ''}]",,83016451,45.484916,9.187694,Milano
9,"[{'type': 'source', 'value': '87756403'}, {'type': 'uic', 'value': '87756403'}]",Monaco-Monte-Carlo,[],"{'lat': '43.738414', 'lon': '7.419747'}",Monaco-Monte-Carlo (Monaco),Europe/Paris,stop_area:SNCF:87756403,"[{'insee': '', 'name': 'Monaco', 'level': 8, 'coord': {'lat': '43.7311424', 'lon': '7.4197576'}, 'label': 'Monaco', 'id': 'admin:osm:relation:2220322', 'zip_code': ''}]",,87756403,43.738414,7.419747,Monaco
21,"[{'type': 'source', 'value': '88810000'}, {'type': 'uic', 'value': '88810000'}]",Mons,[],"{'lat': '50.454', 'lon': '3.942'}",Mons (Mons),Europe/Paris,stop_area:SNCF:88810000,"[{'insee': '', 'name': 'Mons', 'level': 8, 'coord': {'lat': '50.4549568', 'lon': '3.951958'}, 'label': 'Mons', 'id': 'admin:osm:relation:1949374', 'zip_code': ''}]",,88810000,50.454,3.942,Mons
20,"[{'type': 'source', 'value': '85013003'}, {'type': 'uic', 'value': '85013003'}]",Montreux,[],"{'lat': '46.43588', 'lon': '6.91043'}",Montreux (Montreux),Europe/Paris,stop_area:SNCF:85013003,"[{'insee': '', 'name': 'Montreux', 'level': 8, 'coord': {'lat': '46.45176946339488', 'lon': '6.940734284158072'}, 'label': 'Montreux', 'id': 'admin:osm:relation:1685062', 'zip_code': ''}]",,85013003,46.43588,6.91043,Montreux
15,"[{'type': 'source', 'value': '85010371'}, {'type': 'uic', 'value': '85010371'}]",Morges,[],"{'lat': '46.5111', 'lon': '6.49396'}",Morges (Morges),Europe/Paris,stop_area:SNCF:85010371,"[{'insee': '', 'name': 'Morges', 'level': 8, 'coord': {'lat': '46.51396277686894', 'lon': '6.493224031800708'}, 'label': 'Morges (1110)', 'id': 'admin:osm:relation:1685064', 'zip_code': '1110'}]",,85010371,46.5111,6.49396,Morges
13,"[{'type': 'source', 'value': '88857040'}, {'type': 'uic', 'value': '88857040'}]",Mouscron,[],"{'lat': '50.738', 'lon': '3.225'}",Mouscron (Mouscron),Europe/Paris,stop_area:SNCF:88857040,"[{'insee': '', 'name': 'Mouscron', 'level': 8, 'coord': {'lat': '50.7436672', 'lon': '3.2142729'}, 'label': 'Mouscron', 'id': 'admin:osm:relation:1920616', 'zip_code': ''}]",,88857040,50.738,3.225,Mouscron
17,"[{'type': 'source', 'value': '85001057'}, {'type': 'uic', 'value': '85001057'}]",Moutier,[],"{'lat': '47.28067', 'lon': '7.38105'}",Moutier (Moutier),Europe/Paris,stop_area:SNCF:85001057,"[{'insee': '', 'name': 'Moutier', 'level': 8, 'coord': {'lat': '47.2796142', 'lon': '7.3704192'}, 'label': 'Moutier (2740)', 'id': 'admin:osm:relation:1682559', 'zip_code': '2740'}]",,85001057,47.28067,7.38105,Moutier
23,"[{'type': 'source', 'value': '80144139'}, {'type': 'uic', 'value': '80144139'}]",Muellheim (Baden),[],"{'lat': '47.81', 'lon': '7.5996'}",Muellheim (Baden) (Müllheim),Europe/Paris,stop_area:SNCF:80144139,"[{'insee': '', 'name': 'Müllheim', 'level': 8, 'coord': {'lat': '47.80856810840131', 'lon': '7.654554456875666'}, 'label': 'Müllheim', 'id': 'admin:osm:relation:311922', 'zip_code': ''}]",,80144139,47.81,7.5996,Müllheim
14,"[{'type': 'source', 'value': '80203471'}, {'type': 'uic', 'value': '80203471'}]",Munich,[],"{'lat': '48.1401', 'lon': '11.5587'}",Munich (München),Europe/Paris,stop_area:SNCF:80203471,"[{'insee': '', 'name': 'München', 'level': 8, 'coord': {'lat': '48.1371079', 'lon': '11.5753822'}, 'label': 'München', 'id': 'admin:osm:relation:62428', 'zip_code': ''}]",,80203471,48.1401,11.5587,München
7,"[{'type': 'source', 'value': '88630080'}, {'type': 'uic', 'value': '88630080'}]",Namur,[],"{'lat': '50.469', 'lon': '4.862'}",Namur (Namur),Europe/Paris,stop_area:SNCF:88630080,"[{'insee': '', 'name': 'Namur', 'level': 8, 'coord': {'lat': '50.46652839999999', 'lon': '4.8661892'}, 'label': 'Namur (5000-5101)', 'id': 'admin:osm:relation:1405439', 'zip_code': '5000;5101'}]",,88630080,50.469,4.862,Namur
12,"[{'type': 'source', 'value': '80646141'}, {'type': 'uic', 'value': '80646141'}]",Neuburg (Rhein),[],"{'lat': '48.9921', 'lon': '8.238099999999999'}",Neuburg (Rhein) (Neuburg am Rhein),Europe/Paris,stop_area:SNCF:80646141,"[{'insee': '', 'name': 'Neuburg am Rhein', 'level': 8, 'coord': {'lat': '48.98583863441409', 'lon': '8.246834747885996'}, 'label': 'Neuburg am Rhein', 'id': 'admin:osm:relation:1250484', 'zip_code': ''}]",,80646141,48.9921,8.2381,Neuburg am Rhein
13,"[{'type': 'source', 'value': '85042218'}, {'type': 'uic', 'value': '85042218'}]",Neuchatel,[],"{'lat': '46.99673', 'lon': '6.93571'}",Neuchatel (Neuchâtel),Europe/Paris,stop_area:SNCF:85042218,"[{'insee': '', 'name': 'Neuchâtel', 'level': 8, 'coord': {'lat': '46.9895828', 'lon': '6.929264099999999'}, 'label': 'Neuchâtel', 'id': 'admin:osm:relation:1685519', 'zip_code': ''}]",,85042218,46.99673,6.93571,Neuchâtel
15,"[{'type': 'source', 'value': '80144154'}, {'type': 'uic', 'value': '80144154'}]",Neuenburg (Baden),[],"{'lat': '47.8115', 'lon': '7.5628'}",Neuenburg (Baden) (Neuenburg am Rhein),Europe/Paris,stop_area:SNCF:80144154,"[{'insee': '', 'name': 'Neuenburg am Rhein', 'level': 8, 'coord': {'lat': '47.8155916', 'lon': '7.5627871'}, 'label': 'Neuenburg am Rhein', 'id': 'admin:osm:relation:270514', 'zip_code': ''}]",,80144154,47.8115,7.5628,Neuenburg am Rhein
4,"[{'type': 'source', 'value': '80194035'}, {'type': 'uic', 'value': '80194035'}]",Neustadt (Weinstr) Hbf,[],"{'lat': '49.3496', 'lon': '8.1403'}",Neustadt (Weinstr) Hbf (Neustadt an der Weinstra_e),Europe/Paris,stop_area:SNCF:80194035,"[{'insee': '', 'name': 'Neustadt an der Weinstra_e', 'level': 8, 'coord': {'lat': '49.3539802', 'lon': '8.135002099999999'}, 'label': 'Neustadt an der Weinstra_e', 'id': 'admin:osm:relation:62724', 'zip_code': ''}]",,80194035,49.3496,8.1403,Neustadt an der Weinstra_e
5,"[{'type': 'source', 'value': '80920793'}, {'type': 'uic', 'value': '80920793'}]",Neustadt (Weinstra_e) Süd,[],"{'lat': '49.341274', 'lon': '8.157026999999999'}",Neustadt (Weinstra_e) Süd (Neustadt an der Weinstra_e),Europe/Paris,stop_area:SNCF:80920793,"[{'insee': '', 'name': 'Neustadt an der Weinstra_e', 'level': 8, 'coord': {'lat': '49.3539802', 'lon': '8.135002099999999'}, 'label': 'Neustadt an der Weinstra_e', 'id': 'admin:osm:relation:62724', 'zip_code': ''}]",,80920793,49.341274,8.157027,Neustadt an der Weinstra_e
4,"[{'type': 'source', 'value': '83002485'}, {'type': 'uic', 'value': '83002485'}]",NOVARA,[],"{'lat': '45.451371', 'lon': '8.624912999999999'}",NOVARA (Novara),Europe/Paris,stop_area:SNCF:83002485,"[{'insee': '', 'name': 'Novara', 'level': 8, 'coord': {'lat': '45.4464036', 'lon': '8.619655'}, 'label': 'Novara', 'id': 'admin:osm:relation:44898', 'zip_code': ''}]",,83002485,45.451371,8.624913,Novara
18,"[{'type': 'source', 'value': '85010306'}, {'type': 'uic', 'value': '85010306'}]",Nyon,[],"{'lat': '46.38442', 'lon': '6.23596'}",Nyon (Nyon),Europe/Paris,stop_area:SNCF:85010306,"[{'insee': '', 'name': 'Nyon', 'level': 8, 'coord': {'lat': '46.3820585', 'lon': '6.2402791'}, 'label': 'Nyon (1260)', 'id': 'admin:osm:relation:1685074', 'zip_code': '1260'}]",,85010306,46.38442,6.23596,Nyon
5,"[{'type': 'source', 'value': '80143099'}, {'type': 'uic', 'value': '80143099'}]",Offenburg,[],"{'lat': '48.4765', 'lon': '7.9468'}",Offenburg (Offenburg),Europe/Paris,stop_area:SNCF:80143099,"[{'insee': '', 'name': 'Offenburg', 'level': 8, 'coord': {'lat': '48.4716556', 'lon': '7.944378'}, 'label': 'Offenburg', 'id': 'admin:osm:relation:452988', 'zip_code': ''}]",,80143099,48.4765,7.9468,Offenburg
24,"[{'type': 'source', 'value': '83002048'}, {'type': 'uic', 'value': '83002048'}]",OULX CESANA CLAVIERE SESTRIERE,[],"{'lat': '45.038795', 'lon': '6.831431'}",OULX CESANA CLAVIERE SESTRIERE (Oulx),Europe/Paris,stop_area:SNCF:83002048,"[{'insee': '', 'name': 'Oulx', 'level': 8, 'coord': {'lat': '45.0330519', 'lon': '6.83251'}, 'label': 'Oulx', 'id': 'admin:osm:relation:43955', 'zip_code': ''}]",,83002048,45.038795,6.831431,Oulx
17,"[{'type': 'source', 'value': '80251967'}, {'type': 'uic', 'value': '80251967'}]",Perl,[],"{'lat': '49.4731', 'lon': '6.3693'}",Perl (Perl),Europe/Paris,stop_area:SNCF:80251967,"[{'insee': '', 'name': 'Perl', 'level': 8, 'coord': {'lat': '49.4735915', 'lon': '6.3874514'}, 'label': 'Perl', 'id': 'admin:osm:relation:1184400', 'zip_code': ''}]",,80251967,49.4731,6.3693,Perl
18,"[{'type': 'source', 'value': '87697839'}, {'type': 'uic', 'value': '87697839'}]",Perl Gare Routière,[],"{'lat': '49.473147', 'lon': '6.369671'}",Perl Gare Routière (Perl),Europe/Paris,stop_area:SNCF:87697839,"[{'insee': '', 'name': 'Perl', 'level': 8, 'coord': {'lat': '49.4735915', 'lon': '6.3874514'}, 'label': 'Perl', 'id': 'admin:osm:relation:1184400', 'zip_code': ''}]",,87697839,49.473147,6.369671,Perl
8,"[{'type': 'source', 'value': '82009300'}, {'type': 'uic', 'value': '82009300'}]",Petange,[],"{'lat': '49.55419', 'lon': '5.8786'}",Petange (Pétange),Europe/Paris,stop_area:SNCF:82009300,"[{'insee': '', 'name': 'Pétange', 'level': 8, 'coord': {'lat': '49.5566918', 'lon': '5.8776052'}, 'label': 'Pétange', 'id': 'admin:osm:relation:407475', 'zip_code': ''}]",,82009300,49.55419,5.8786,Pétange
16,"[{'type': 'source', 'value': '85010132'}, {'type': 'uic', 'value': '85010132'}]",Pont-Céard,[],"{'lat': '46.28739', 'lon': '6.162667'}",Pont-Céard (Versoix),Europe/Paris,stop_area:SNCF:85010132,"[{'insee': '', 'name': 'Versoix', 'level': 8, 'coord': {'lat': '46.28816642066949', 'lon': '6.156075008179871'}, 'label': 'Versoix (1290)', 'id': 'admin:osm:relation:1685541', 'zip_code': '1290'}]",,85010132,46.28739,6.162667,Versoix
9,"[{'type': 'source', 'value': '85001263'}, {'type': 'uic', 'value': '85001263'}]",Porrentruy,[],"{'lat': '47.42091', 'lon': '7.08009'}",Porrentruy (Porrentruy),Europe/Paris,stop_area:SNCF:85001263,"[{'insee': '', 'name': 'Porrentruy', 'level': 8, 'coord': {'lat': '47.42129657404835', 'lon': '7.070992641256139'}, 'label': 'Porrentruy', 'id': 'admin:osm:relation:1685622', 'zip_code': ''}]",,85001263,47.42091,7.08009,Porrentruy
19,"[{'type': 'source', 'value': '87785956'}, {'type': 'uic', 'value': '87785956'}]",Portbou,[],"{'lat': '42.424701', 'lon': '3.158034'}",Portbou (Portbou),Europe/Paris,stop_area:SNCF:87785956,"[{'insee': '', 'name': 'Portbou', 'level': 8, 'coord': {'lat': '42.4274333', 'lon': '3.1588785'}, 'label': 'Portbou', 'id': 'admin:osm:relation:345217', 'zip_code': ''}]",,87785956,42.424701,3.158034,Portbou
20,"[{'type': 'source', 'value': '85011189'}, {'type': 'uic', 'value': '85011189'}]",Renens VD,[],"{'lat': '46.53704', 'lon': '6.57893'}",Renens VD (Renens),Europe/Paris,stop_area:SNCF:85011189,"[{'insee': '', 'name': 'Renens', 'level': 8, 'coord': {'lat': '46.5349093', 'lon': '6.5928442'}, 'label': 'Renens (1020)', 'id': 'admin:osm:relation:1685116', 'zip_code': '1020'}]",,85011189,46.53704,6.57893,Renens
19,"[{'type': 'source', 'value': '80143255'}, {'type': 'uic', 'value': '80143255'}]",Ringsheim,[],"{'lat': '48.2489', 'lon': '7.7732'}",Ringsheim (Ringsheim),Europe/Paris,stop_area:SNCF:80143255,"[{'insee': '', 'name': 'Ringsheim', 'level': 8, 'coord': {'lat': '48.24793956373062', 'lon': '7.808666677994923'}, 'label': 'Ringsheim', 'id': 'admin:osm:relation:453001', 'zip_code': ''}]",,80143255,48.2489,7.7732,Ringsheim
19,"[{'type': 'source', 'value': '82002370'}, {'type': 'uic', 'value': '82002370'}]",Rodange,[],"{'lat': '49.550911', 'lon': '5.843642'}",Rodange (Pétange),Europe/Paris,stop_area:SNCF:82002370,"[{'insee': '', 'name': 'Pétange', 'level': 8, 'coord': {'lat': '49.5566918', 'lon': '5.8776052'}, 'label': 'Pétange', 'id': 'admin:osm:relation:407475', 'zip_code': ''}]",,82002370,49.550911,5.843642,Pétange
24,"[{'type': 'source', 'value': '80194316'}, {'type': 'uic', 'value': '80194316'}]",Rohrbach (Pfalz),[],"{'lat': '49.13812', 'lon': '8.14165'}",Rohrbach (Pfalz) (Rohrbach),Europe/Paris,stop_area:SNCF:80194316,"[{'insee': '', 'name': 'Rohrbach', 'level': 8, 'coord': {'lat': '49.1371711', 'lon': '8.131663399999999'}, 'label': 'Rohrbach', 'id': 'admin:osm:relation:1252795', 'zip_code': ''}]",,80194316,49.13812,8.14165,Rohrbach
5,"[{'type': 'source', 'value': '85010330'}, {'type': 'uic', 'value': '85010330'}]",Rolle,[],"{'lat': '46.46275', 'lon': '6.3364'}",Rolle (Rolle),Europe/Paris,stop_area:SNCF:85010330,"[{'insee': '', 'name': 'Rolle', 'level': 8, 'coord': {'lat': '46.45756517123188', 'lon': '6.331683365715869'}, 'label': 'Rolle (1180)', 'id': 'admin:osm:relation:1685122', 'zip_code': '1180'}]",,85010330,46.46275,6.3364,Rolle
7,"[{'type': 'source', 'value': '84005306'}, {'type': 'uic', 'value': '84005306'}]",Rotterdam Centraal,[],"{'lat': '51.924845', 'lon': '4.469313'}",Rotterdam Centraal (Rotterdam),Europe/Paris,stop_area:SNCF:84005306,"[{'insee': '', 'name': 'Rotterdam', 'level': 8, 'coord': {'lat': '51.9244424', 'lon': '4.477749999999999'}, 'label': 'Rotterdam', 'id': 'admin:osm:relation:1411101', 'zip_code': ''}]",,84005306,51.924845,4.469313,Rotterdam
19,"[{'type': 'source', 'value': '85010025'}, {'type': 'uic', 'value': '85010025'}]",Russin,[],"{'lat': '46.187771', 'lon': '6.017553'}",Russin (Russin),Europe/Paris,stop_area:SNCF:85010025,"[{'insee': '', 'name': 'Russin', 'level': 8, 'coord': {'lat': '46.19387086731526', 'lon': '6.013974661183707'}, 'label': 'Russin (1281)', 'id': 'admin:osm:relation:1685528', 'zip_code': '1281'}]",,85010025,46.187771,6.017553,Russin
1,"[{'type': 'source', 'value': '80253914'}, {'type': 'uic', 'value': '80253914'}]",Sarrebruck,[],"{'lat': '49.241', 'lon': '6.991'}",Sarrebruck (Saarbrücken),Europe/Paris,stop_area:SNCF:80253914,"[{'insee': '', 'name': 'Saarbrücken', 'level': 8, 'coord': {'lat': '49.234362', 'lon': '6.996379'}, 'label': 'Saarbrücken', 'id': 'admin:osm:relation:1187159', 'zip_code': ''}]",,80253914,49.241,6.991,Saarbrücken
17,"[{'type': 'source', 'value': '85010033'}, {'type': 'uic', 'value': '85010033'}]",Satigny,[],"{'lat': '46.21424', 'lon': '6.03749'}",Satigny (Satigny),Europe/Paris,stop_area:SNCF:85010033,"[{'insee': '', 'name': 'Satigny', 'level': 8, 'coord': {'lat': '46.2140683635111', 'lon': '6.036795667822946'}, 'label': 'Satigny (1242)', 'id': 'admin:osm:relation:1685531', 'zip_code': '1242'}]",,85010033,46.21424,6.03749,Satigny
0,"[{'type': 'source', 'value': '84005611'}, {'type': 'uic', 'value': '84005611'}]",Schiphol Airport,[],"{'lat': '52.309636', 'lon': '4.761985'}",Schiphol Airport (Schiphol),Europe/Paris,stop_area:SNCF:84005611,"[{'insee': '', 'name': 'Schiphol', 'level': 8, 'coord': {'lat': '52.3080392', 'lon': '4.7621975'}, 'label': 'Schiphol', 'id': 'admin:osm:relation:1883613', 'zip_code': ''}]",,84005611,52.309636,4.761985,Schiphol
0,"[{'type': 'source', 'value': '85015065'}, {'type': 'uic', 'value': '85015065'}]",Sion,[],"{'lat': '46.22754', 'lon': '7.35918'}",Sion (Sion),Europe/Paris,stop_area:SNCF:85015065,"[{'insee': '', 'name': 'Sion', 'level': 8, 'coord': {'lat': '46.2311749', 'lon': '7.3588795'}, 'label': 'Sion (1950)', 'id': 'admin:osm:relation:2757528', 'zip_code': '1950'}]",,85015065,46.22754,7.35918,Sion
12,"[{'type': 'source', 'value': '85014035'}, {'type': 'uic', 'value': '85014035'}]",St-Maurice,[],"{'lat': '46.21637', 'lon': '7.00204'}",St-Maurice (Saint-Maurice),Europe/Paris,stop_area:SNCF:85014035,"[{'insee': '', 'name': 'Saint-Maurice', 'level': 8, 'coord': {'lat': '46.2197694', 'lon': '7.0045193'}, 'label': 'Saint-Maurice (1890)', 'id': 'admin:osm:relation:2757524', 'zip_code': '1890'}]",,85014035,46.21637,7.00204,Saint-Maurice
20,"[{'type': 'source', 'value': '85001248'}, {'type': 'uic', 'value': '85001248'}]",St-Ursanne,[],"{'lat': '47.36769', 'lon': '7.16596'}",St-Ursanne (Clos du Doubs),Europe/Paris,stop_area:SNCF:85001248,"[{'insee': '', 'name': 'Clos du Doubs', 'level': 8, 'coord': {'lat': '47.3646034', 'lon': '7.153948799999999'}, 'label': 'Clos du Doubs', 'id': 'admin:osm:relation:1685583', 'zip_code': ''}]",,85001248,47.36769,7.16596,Clos du Doubs
18,"[{'type': 'source', 'value': '80290346'}, {'type': 'uic', 'value': '80290346'}]",Stuttgart Hbf,[],"{'lat': '48.7846', 'lon': '9.1837'}",Stuttgart Hbf (Stuttgart),Europe/Paris,stop_area:SNCF:80290346,"[{'insee': '', 'name': 'Stuttgart', 'level': 8, 'coord': {'lat': '48.7784485', 'lon': '9.180013199999999'}, 'label': 'Stuttgart', 'id': 'admin:osm:relation:2793104', 'zip_code': ''}]",,80290346,48.7846,9.1837,Stuttgart
11,"[{'type': 'source', 'value': '85010157'}, {'type': 'uic', 'value': '85010157'}]",Tannay,[],"{'lat': '46.307636', 'lon': '6.181127'}",Tannay (Tannay),Europe/Paris,stop_area:SNCF:85010157,"[{'insee': '', 'name': 'Tannay', 'level': 8, 'coord': {'lat': '46.31113820711218', 'lon': '6.166481050397943'}, 'label': 'Tannay (1295)', 'id': 'admin:osm:relation:1685161', 'zip_code': '1295'}]",,85010157,46.307636,6.181127,Tannay
2,"[{'type': 'source', 'value': '88850010'}, {'type': 'uic', 'value': '88850010'}]",Tournai,[],"{'lat': '50.613', 'lon': '3.396'}",Tournai (Tournai),Europe/Paris,stop_area:SNCF:88850010,"[{'insee': '', 'name': 'Tournai', 'level': 8, 'coord': {'lat': '50.6056458', 'lon': '3.3878179'}, 'label': 'Tournai', 'id': 'admin:osm:relation:2162970', 'zip_code': ''}]",,88850010,50.613,3.396,Tournai
23,"[{'type': 'source', 'value': '85042150'}, {'type': 'uic', 'value': '85042150'}]",Travers,[],"{'lat': '46.94241', 'lon': '6.67657'}",Travers (Val-de-Travers),Europe/Paris,stop_area:SNCF:85042150,"[{'insee': '', 'name': 'Val-de-Travers', 'level': 8, 'coord': {'lat': '46.92433495206163', 'lon': '6.597597513758044'}, 'label': 'Val-de-Travers', 'id': 'admin:osm:relation:1685536', 'zip_code': ''}]",,85042150,46.94241,6.67657,Val-de-Travers
2,"[{'type': 'source', 'value': '80251819'}, {'type': 'uic', 'value': '80251819'}]",Trèves,[],"{'lat': '49.7568', 'lon': '6.6522'}",Trèves (Trier),Europe/Paris,stop_area:SNCF:80251819,"[{'insee': '', 'name': 'Trier', 'level': 8, 'coord': {'lat': '49.7596208', 'lon': '6.6441878'}, 'label': 'Trier', 'id': 'admin:osm:relation:172679', 'zip_code': ''}]",,80251819,49.7568,6.6522,Trier
1,"[{'type': 'source', 'value': '83002220'}, {'type': 'uic', 'value': '83002220'}]",Turin Porta Susa,[],"{'lat': '45.074118', 'lon': '7.666675'}",Turin Porta Susa (Torino),Europe/Paris,stop_area:SNCF:83002220,"[{'insee': '', 'name': 'Torino', 'level': 8, 'coord': {'lat': '45.0677551', 'lon': '7.6824892'}, 'label': 'Torino', 'id': 'admin:osm:relation:43992', 'zip_code': ''}]",,83002220,45.074118,7.666675,Torino
6,"[{'type': 'source', 'value': '80291039'}, {'type': 'uic', 'value': '80291039'}]",Ulm Hbf,[],"{'lat': '48.3996', 'lon': '9.982799999999999'}",Ulm Hbf (Ulm),Europe/Paris,stop_area:SNCF:80291039,"[{'insee': '', 'name': 'Ulm', 'level': 8, 'coord': {'lat': '48.3974003', 'lon': '9.993433599999999'}, 'label': 'Ulm', 'id': 'admin:osm:relation:62495', 'zip_code': ''}]",,80291039,48.3996,9.9828,Ulm
21,"[{'type': 'source', 'value': '85011031'}, {'type': 'uic', 'value': '85011031'}]",Vallorbe,[],"{'lat': '46.71242', 'lon': '6.37057'}",Vallorbe (Vallorbe),Europe/Paris,stop_area:SNCF:85011031,"[{'insee': '', 'name': 'Vallorbe', 'level': 8, 'coord': {'lat': '46.70782204038408', 'lon': '6.371404965519222'}, 'label': 'Vallorbe (1337)', 'id': 'admin:osm:relation:1685174', 'zip_code': '1337'}]",,85011031,46.71242,6.37057,Vallorbe
18,"[{'type': 'source', 'value': '83045013'}, {'type': 'uic', 'value': '83045013'}]",VENTIMIGLIA,[],"{'lat': '43.792569', 'lon': '7.610233'}",VENTIMIGLIA (Ventimiglia),Europe/Paris,stop_area:SNCF:83045013,"[{'insee': '', 'name': 'Ventimiglia', 'level': 8, 'coord': {'lat': '43.79176229999999', 'lon': '7.603313099999999'}, 'label': 'Ventimiglia', 'id': 'admin:osm:relation:42680', 'zip_code': ''}]",,83045013,43.792569,7.610233,Ventimiglia
19,"[{'type': 'source', 'value': '83002451'}, {'type': 'uic', 'value': '83002451'}]",VERCELLI,[],"{'lat': '45.329904', 'lon': '8.416041999999999'}",VERCELLI (Vercelli),Europe/Paris,stop_area:SNCF:83002451,"[{'insee': '', 'name': 'Vercelli', 'level': 8, 'coord': {'lat': '45.3251557', 'lon': '8.422766599999999'}, 'label': 'Vercelli', 'id': 'admin:osm:relation:1552703', 'zip_code': ''}]",,83002451,45.329904,8.416042,Vercelli
10,"[{'type': 'source', 'value': '85010074'}, {'type': 'uic', 'value': '85010074'}]",Vernier,[],"{'lat': '46.22071', 'lon': '6.093892'}",Vernier (Vernier),Europe/Paris,stop_area:SNCF:85010074,"[{'insee': '', 'name': 'Vernier', 'level': 8, 'coord': {'lat': '46.21318429999999', 'lon': '6.0815756'}, 'label': 'Vernier', 'id': 'admin:osm:relation:1685540', 'zip_code': ''}]",,85010074,46.22071,6.093892,Vernier
22,"[{'type': 'source', 'value': '85010223'}, {'type': 'uic', 'value': '85010223'}]",Versoix,[],"{'lat': '46.279717', 'lon': '6.165748'}",Versoix (Versoix),Europe/Paris,stop_area:SNCF:85010223,"[{'insee': '', 'name': 'Versoix', 'level': 8, 'coord': {'lat': '46.28816642066949', 'lon': '6.156075008179871'}, 'label': 'Versoix (1290)', 'id': 'admin:osm:relation:1685541', 'zip_code': '1290'}]",,85010223,46.279717,6.165748,Versoix
11,"[{'type': 'source', 'value': '85012005'}, {'type': 'uic', 'value': '85012005'}]",Vevey,[],"{'lat': '46.463', 'lon': '6.84344'}",Vevey (Vevey),Europe/Paris,stop_area:SNCF:85012005,"[{'insee': '', 'name': 'Vevey', 'level': 8, 'coord': {'lat': '46.4602978', 'lon': '6.8418655'}, 'label': 'Vevey', 'id': 'admin:osm:relation:1685178', 'zip_code': ''}]",,85012005,46.463,6.84344,Vevey
3,"[{'type': 'source', 'value': '85013037'}, {'type': 'uic', 'value': '85013037'}]",Villeneuve,[],"{'lat': '46.39837', 'lon': '6.92699'}",Villeneuve (Villeneuve (VD)),Europe/Paris,stop_area:SNCF:85013037,"[{'insee': '', 'name': 'Villeneuve (VD)', 'level': 8, 'coord': {'lat': '46.3965712', 'lon': '6.9248129'}, 'label': 'Villeneuve (VD) (1844)', 'id': 'admin:osm:relation:1685193', 'zip_code': '1844'}]",,85013037,46.39837,6.92699,Villeneuve (VD)
7,"[{'type': 'source', 'value': '80194324'}, {'type': 'uic', 'value': '80194324'}]",Winden (Pfalz),[],"{'lat': '49.0954', 'lon': '8.122400000000001'}",Winden (Pfalz) (Winden),Europe/Paris,stop_area:SNCF:80194324,"[{'insee': '', 'name': 'Winden', 'level': 8, 'coord': {'lat': '49.09772359999999', 'lon': '8.1144699'}, 'label': 'Winden', 'id': 'admin:osm:relation:1250497', 'zip_code': ''}]",,80194324,49.0954,8.1224,Winden
17,"[{'type': 'source', 'value': '80191031'}, {'type': 'uic', 'value': '80191031'}]",Woerth (Rhein),[],"{'lat': '49.0457', 'lon': '8.273199999999999'}",Woerth (Rhein) (Wörth am Rhein),Europe/Paris,stop_area:SNCF:80191031,"[{'insee': '', 'name': 'Wörth am Rhein', 'level': 8, 'coord': {'lat': '49.03395129883976', 'lon': '8.18870269755608'}, 'label': 'Wörth am Rhein', 'id': 'admin:osm:relation:904764', 'zip_code': ''}]",,80191031,49.0457,8.2732,Wörth am Rhein
11,"[{'type': 'source', 'value': '71040402'}, {'type': 'uic', 'value': '71040402'}]",ZARAGOZA-DELICIAS,[],"{'lat': '41.658683', 'lon': '-0.910774'}",ZARAGOZA-DELICIAS (Zaragoza),Europe/Paris,stop_area:SNCF:71040402,"[{'insee': '', 'name': 'Zaragoza', 'level': 8, 'coord': {'lat': '41.6521342', 'lon': '-0.8809427999999999'}, 'label': 'Zaragoza', 'id': 'admin:osm:relation:345740', 'zip_code': ''}]",,71040402,41.658683,-0.910774,Zaragoza
17,"[{'type': 'source', 'value': '85010009'}, {'type': 'uic', 'value': '85010009'}]",Zimeysa,[],"{'lat': '46.221263', 'lon': '6.065739'}",Zimeysa (Meyrin),Europe/Paris,stop_area:SNCF:85010009,"[{'insee': '', 'name': 'Meyrin', 'level': 8, 'coord': {'lat': '46.23222879481358', 'lon': '6.079098779483221'}, 'label': 'Meyrin', 'id': 'admin:osm:relation:1685516', 'zip_code': ''}]",,85010009,46.221263,6.065739,Meyrin
20,"[{'type': 'source', 'value': '85030007'}, {'type': 'uic', 'value': '85030007'}]",Zuerich HB,[],"{'lat': '47.37817', 'lon': '8.540190000000001'}",Zuerich HB (Zürich),Europe/Paris,stop_area:SNCF:85030007,"[{'insee': '', 'name': 'Zürich', 'level': 8, 'coord': {'lat': '47.3744489', 'lon': '8.5410422'}, 'label': 'Zürich', 'id': 'admin:osm:relation:1682248', 'zip_code': ''}]",,85030007,47.37817,8.54019,Zürich